[
  {
    "edition": 2025,
    "region": "Auvergne Rhone-Alpes",
    "lieu": "Parc de la Tête d'Or",
    "ville": "Lyon",
    "type": "Nature",
    "categorie": "Parc",
    "longitude": 45.77892019,
    "latitude": 4.852868941
  },
  {
    "edition": 2025,
    "region": "Auvergne Rhone-Alpes",
    "lieu": "Vieille ville d'Annecy​",
    "ville": "Annecy",
    "type": "lieu",
    "categorie": "Place",
    "longitude": 45.89837728,
    "latitude": 6.125602312
  },
  {
    "edition": 2025,
    "region": "Auvergne Rhone-Alpes",
    "lieu": "Chamonix-Mont-Blanc​",
    "ville": "Chamonix",
    "type": "Nature",
    "categorie": "Mont",
    "longitude": 45.83366698,
    "latitude": 6.86496945
  },
  {
    "edition": 2025,
    "region": "Auvergne Rhone-Alpes",
    "lieu": "Palais Idéal du Facteur Cheval",
    "ville": "Hauterives",
    "type": "Monument",
    "categorie": "Musée",
    "longitude": 45.2563639,
    "latitude": 5.028638543
  },
  {
    "edition": 2025,
    "region": "Bourgogne-Franche-Comté",
    "lieu": "Batiment natale de Victor Hugo",
    "ville": "Besançon",
    "type": "Monument",
    "categorie": "Batiment",
    "longitude": 47.23492803,
    "latitude": 6.029244232
  },
  {
    "edition": 2025,
    "region": "Bourgogne-Franche-Comté",
    "lieu": "Lac de Chalain​",
    "ville": "Chalain",
    "type": "lieu",
    "categorie": "Plage",
    "longitude": 46.67240764,
    "latitude": 5.787054602
  },
  {
    "edition": 2025,
    "region": "Bourgogne-Franche-Comté",
    "lieu": "Musée des Beaux-Arts de Dijon​",
    "ville": "Dijon",
    "type": "Monument",
    "categorie": "Musée",
    "longitude": 47.32179891,
    "latitude": 5.042881313
  },
  {
    "edition": 2025,
    "region": "Bourgogne-Franche-Comté",
    "lieu": "Grottes d'Arcy-sur-Cure​",
    "ville": "Arcy-sur-Cure​",
    "type": "Nature",
    "categorie": "Grotte",
    "longitude": 47.59217135,
    "latitude": 3.76724911
  },
  {
    "edition": 2025,
    "region": "Bretagne",
    "lieu": "Saint-Malo​",
    "ville": "Saint-Malo​",
    "type": "lieu",
    "categorie": "Plage",
    "longitude": 48.64960764,
    "latitude": -2.018569133
  },
  {
    "edition": 2025,
    "region": "Bretagne",
    "lieu": "Alignements​ de Carnac",
    "ville": "Carnac",
    "type": "lieu",
    "categorie": "Place",
    "longitude": 47.59195134,
    "latitude": -3.083609326
  },
  {
    "edition": 2025,
    "region": "Bretagne",
    "lieu": "Pointe du Raz​",
    "ville": "Plogoff",
    "type": "lieu",
    "categorie": "Plage",
    "longitude": 48.04041839,
    "latitude": -4.740523783
  },
  {
    "edition": 2025,
    "region": "Bretagne",
    "lieu": "Forêt de Brocéliande​",
    "ville": "Paimpont",
    "type": "Nature",
    "categorie": "Foret",
    "longitude": 48.0190012,
    "latitude": -2.173844585
  },
  {
    "edition": 2025,
    "region": "Centre-Val de Loire",
    "lieu": "Château de Chambord​",
    "ville": "Chambord",
    "type": "Monument",
    "categorie": "Château",
    "longitude": 47.61596067,
    "latitude": 1.516929613
  },
  {
    "edition": 2025,
    "region": "Centre-Val de Loire",
    "lieu": "Château de Chenonceau​",
    "ville": "Chenonceau",
    "type": "Monument",
    "categorie": "Château",
    "longitude": 47.3249932,
    "latitude": 1.070257582
  },
  {
    "edition": 2025,
    "region": "Centre-Val de Loire",
    "lieu": "Château de Villandry​",
    "ville": "Villandry",
    "type": "Monument",
    "categorie": "Château",
    "longitude": 47.34041848,
    "latitude": 0.514862584
  },
  {
    "edition": 2025,
    "region": "Centre-Val de Loire",
    "lieu": "Cathédrale de Chartres​",
    "ville": "Chartres",
    "type": "Culte",
    "categorie": "Cathedrale",
    "longitude": 48.44793778,
    "latitude": 1.487837098
  },
  {
    "edition": 2025,
    "region": "Corse",
    "lieu": "Calanques de Piana​",
    "ville": "Piana",
    "type": "lieu",
    "categorie": "Plage",
    "longitude": 42.24561152,
    "latitude": 8.653476897
  },
  {
    "edition": 2025,
    "region": "Corse",
    "lieu": "Réserve naturelle de Scandola​",
    "ville": "Scandola",
    "type": "Nature",
    "categorie": "Plage",
    "longitude": 42.35868373,
    "latitude": 8.567890482
  },
  {
    "edition": 2025,
    "region": "Corse",
    "lieu": "Falaises​ de Bonifacio",
    "ville": "Bonifacio",
    "type": "lieu",
    "categorie": "Plage",
    "longitude": 41.38658691,
    "latitude": 9.159351557
  },
  {
    "edition": 2025,
    "region": "Grand Est",
    "lieu": "Cathédrale Notre-Dame de Strasbourg​",
    "ville": "Strasbourg",
    "type": "Culte",
    "categorie": "Cathedrale",
    "longitude": 48.58193583,
    "latitude": 7.750990343
  },
  {
    "edition": 2025,
    "region": "Grand Est",
    "lieu": "Petite France",
    "ville": "Strasbourg",
    "type": "lieu",
    "categorie": "Place",
    "longitude": 48.58111589,
    "latitude": 7.741481331
  },
  {
    "edition": 2025,
    "region": "Grand Est",
    "lieu": "Place Stanislas",
    "ville": "Nancy",
    "type": "lieu",
    "categorie": "Place",
    "longitude": 48.69381667,
    "latitude": 6.183241298
  },
  {
    "edition": 2026,
    "region": "Grand Est",
    "lieu": "Statue Stanislas",
    "ville": "Nancy",
    "type": "Monument",
    "categorie": "Statue",
    "longitude": 48.69354902,
    "latitude": 6.183304058
  },
  {
    "edition": 2025,
    "region": "Hauts-de-France",
    "lieu": "Beffroi de Lille​",
    "ville": "Lille",
    "type": "Monument",
    "categorie": "Château",
    "longitude": 50.63081759,
    "latitude": 3.069734511
  },
  {
    "edition": 2025,
    "region": "Hauts-de-France",
    "lieu": "Cathédrale d'Amiens​",
    "ville": "Amiens",
    "type": "Culte",
    "categorie": "Cathedrale",
    "longitude": 49.89476827,
    "latitude": 2.302118171
  },
  {
    "edition": 2025,
    "region": "Hauts-de-France",
    "lieu": "Baie de Somme​",
    "ville": "Le Crotoy",
    "type": "lieu",
    "categorie": "Plage",
    "longitude": 50.20182751,
    "latitude": 1.626858133
  },
  {
    "edition": 2025,
    "region": "Hauts-de-France",
    "lieu": "Château de Chantilly​",
    "ville": "Chantilly",
    "type": "Monument",
    "categorie": "Château",
    "longitude": 49.19400793,
    "latitude": 2.485578907
  },
  {
    "edition": 2025,
    "region": "Ile de France",
    "lieu": "Tour eiffel",
    "ville": "Paris",
    "type": "Monument",
    "categorie": "Batiment",
    "longitude": 48.85851674,
    "latitude": 2.29451526
  },
  {
    "edition": 2025,
    "region": "Ile de France",
    "lieu": "Arc de Triomphe​",
    "ville": "Paris",
    "type": "Monument",
    "categorie": "Porte",
    "longitude": 48.87396103,
    "latitude": 2.29490948
  },
  {
    "edition": 2025,
    "region": "Ile de France",
    "lieu": "Basilique du Sacré-Cœur​",
    "ville": "Paris",
    "type": "Culte",
    "categorie": "Basilique",
    "longitude": 48.88673409,
    "latitude": 2.343110533
  },
  {
    "edition": 2025,
    "region": "Ile de France",
    "lieu": "Musée d'Orsay​",
    "ville": "Paris",
    "type": "Monument",
    "categorie": "Musée",
    "longitude": 48.86005313,
    "latitude": 2.326743788
  },
  {
    "edition": 2025,
    "region": "Occitanie",
    "lieu": "Cité de Carcassonne​",
    "ville": "Carcassone",
    "type": "lieu",
    "categorie": "Place",
    "longitude": 43.20629272,
    "latitude": 2.364131724
  },
  {
    "edition": 2025,
    "region": "Occitanie",
    "lieu": "Les joutes de Sète",
    "ville": "Sete",
    "type": "Evenement",
    "categorie": "Historique",
    "longitude": 43.40184708,
    "latitude": 3.69578134
  },
  {
    "edition": 2025,
    "region": "Occitanie",
    "lieu": "Le Pont du Gard",
    "ville": "Vers-Pont-du-Gard",
    "type": "Monument",
    "categorie": "Pont",
    "longitude": 43.94778998,
    "latitude": 4.534895624
  },
  {
    "edition": 2025,
    "region": "Occitanie",
    "lieu": "Rocamadour",
    "ville": "Rocamadour",
    "type": "lieu",
    "categorie": "Place",
    "longitude": 44.79924267,
    "latitude": 1.616629565
  },
  {
    "edition": 2025,
    "region": "Nouvelle Aquitaine",
    "lieu": "Dune du Pilat",
    "ville": "Arcachon",
    "type": "lieu",
    "categorie": "Plage",
    "longitude": 44.58999189,
    "latitude": -1.213270438
  },
  {
    "edition": 2025,
    "region": "Nouvelle Aquitaine",
    "lieu": "Les Pans de Travassac",
    "ville": "Donzenac",
    "type": "lieu",
    "categorie": "Place",
    "longitude": 45.22430916,
    "latitude": 1.548026555
  },
  {
    "edition": 2025,
    "region": "Nouvelle Aquitaine",
    "lieu": "Jardins de Marqueyssac",
    "ville": "Vézac",
    "type": "Nature",
    "categorie": "Parc",
    "longitude": 44.82578732,
    "latitude": 1.164504569
  },
  {
    "edition": 2025,
    "region": "Nouvelle Aquitaine",
    "lieu": "La Passerelle d'Holzarte",
    "ville": "Larrau",
    "type": "Monument",
    "categorie": "Pont",
    "longitude": 43.00505875,
    "latitude": -0.9229544757
  },
  {
    "edition": 2025,
    "region": "Provences Alpe Cote d'Azur",
    "lieu": "Palais des Papes​",
    "ville": "Avignon",
    "type": "Culte",
    "categorie": "Château",
    "longitude": 43.95098338,
    "latitude": 4.807707826
  },
  {
    "edition": 2025,
    "region": "Provences Alpe Cote d'Azur",
    "lieu": "Les Gorges du Verdon",
    "ville": "Rougon",
    "type": "Nature",
    "categorie": "Mont",
    "longitude": 43.76967771,
    "latitude": 6.315554836
  },
  {
    "edition": 2025,
    "region": "Provences Alpe Cote d'Azur",
    "lieu": "Le lac d'Allos",
    "ville": "Allos",
    "type": "lieu",
    "categorie": "Plage",
    "longitude": 44.23370838,
    "latitude": 6.708295877
  },
  {
    "edition": 2025,
    "region": "Provences Alpe Cote d'Azur",
    "lieu": "La Citadelle de Sisteron",
    "ville": "Sisteron",
    "type": "Culte",
    "categorie": "Citadelle",
    "longitude": 44.19887891,
    "latitude": 5.943566334
  },
  {
    "edition": 2025,
    "region": "Normandie",
    "lieu": "Les jardins de Monet à Giverny",
    "ville": "Giverny",
    "type": "Nature",
    "categorie": "Parc",
    "longitude": 49.0755127,
    "latitude": 1.533617667
  },
  {
    "edition": 2025,
    "region": "Normandie",
    "lieu": "Mont Saint-Michel​",
    "ville": "Mont Saint-Michel​",
    "type": "Nature",
    "categorie": "Mont",
    "longitude": 48.63648581,
    "latitude": -1.512044367
  },
  {
    "edition": 2025,
    "region": "Normandie",
    "lieu": "Omaha beach",
    "ville": "Saint-Laurent-sur-Mer",
    "type": "lieu",
    "categorie": "Plage",
    "longitude": 49.36991532,
    "latitude": -0.8700399241
  },
  {
    "edition": 2025,
    "region": "Normandie",
    "lieu": "Le Haras du Pin",
    "ville": "Le Pin-au-Haras",
    "type": "Monument",
    "categorie": "Batiment",
    "longitude": 48.73902195,
    "latitude": 0.1470705718
  },
  {
    "edition": 2025,
    "region": "Pays de la Loire",
    "lieu": "Château de Saumur​",
    "ville": "Saumur",
    "type": "Monument",
    "categorie": "Château",
    "longitude": 47.25715813,
    "latitude": -0.07241103132
  },
  {
    "edition": 2025,
    "region": "Pays de la Loire",
    "lieu": "Les Sables d’Olonne",
    "ville": "Les Sables-d'Olonne",
    "type": "lieu",
    "categorie": "Plage",
    "longitude": 46.55679192,
    "latitude": -1.834670341
  },
  {
    "edition": 2025,
    "region": "Pays de la Loire",
    "lieu": "La cité fortifiée de Guérande",
    "ville": "Guérande",
    "type": "lieu",
    "categorie": "Place",
    "longitude": 47.32789966,
    "latitude": -2.429221358
  },
  {
    "edition": "ennery"
  },
  {
    "edition": "ennery"
  },
  {
    "edition": "ennery"
  },
  {
    "edition": "ennery"
  }
]